[
  {"name": "Yellowstone", "state": "WY", "region": "Rockies", "established": "1872", "area_sq_miles": 3472, "latitude": 44.4280, "longitude": -110.5885, "description": "First national park featuring geysers, hot springs, and wildlife.", "website": "https://www.nps.gov/yell"},
  {"name": "Grand Canyon", "state": "AZ", "region": "Southwest", "established": "1919", "area_sq_miles": 4856, "latitude": 36.1069, "longitude": -112.1130, "description": "Iconic canyon carved by the Colorado River.", "website": "https://www.nps.gov/grca"},
  {"name": "Yosemite", "state": "CA", "region": "Pacific", "established": "1890", "area_sq_miles": 1169, "latitude": 37.8651, "longitude": -119.5383, "description": "Granite cliffs, waterfalls, and giant sequoias.", "website": "https://www.nps.gov/yose"},
  {"name": "Zion", "state": "UT", "region": "Southwest", "established": "1919", "area_sq_miles": 229, "latitude": 37.2982, "longitude": -112.9789, "description": "Red cliffs and canyon hikes.", "website": "https://www.nps.gov/zion"},
  {"name": "Rocky Mountain", "state": "CO", "region": "Rockies", "established": "1915", "area_sq_miles": 1075, "latitude": 40.3569, "longitude": -105.6959, "description": "High peaks and alpine tundra.", "website": "https://www.nps.gov/romo"},
  {"name": "Grand Teton", "state": "WY", "region": "Rockies", "established": "1929", "area_sq_miles": 485, "latitude": 43.7904, "longitude": -110.6818, "description": "Dramatic mountain peaks and pristine lakes.", "website": "https://www.nps.gov/grte"},
  {"name": "Carlsbad Caverns", "state": "NM", "region": "Southwest", "established": "1930", "area_sq_miles": 46, "latitude": 32.1393, "longitude": -104.4272, "description": "Enormous underground caverns.", "website": "https://www.nps.gov/cave"},
  {"name": "Death Valley", "state": "CA", "region": "Pacific", "established": "1994", "area_sq_miles": 3472, "latitude": 36.5323, "longitude": -116.8625, "description": "Lowest point in North America.", "website": "https://www.nps.gov/deva"},
  {"name": "Joshua Tree", "state": "CA", "region": "Pacific", "established": "1994", "area_sq_miles": 1235, "latitude": 33.8734, "longitude": -115.9010, "description": "Desert landscape with unique twisted trees.", "website": "https://www.nps.gov/jotr"},
  {"name": "Glacier", "state": "MT", "region": "Rockies", "established": "1910", "area_sq_miles": 1018, "latitude": 48.5034, "longitude": -113.9978, "description": "High peaks, alpine meadows, and glacial lakes.", "website": "https://www.nps.gov/glac"},
  {"name": "Denali", "state": "AK", "region": "Alaska", "established": "1917", "area_sq_miles": 6054, "latitude": 63.0742, "longitude": -151.0029, "description": "Tallest peak in North America and pristine wilderness.", "website": "https://www.nps.gov/dena"},
  {"name": "Great Smoky Mountains", "state": "TN", "region": "Southeast", "established": "1934", "area_sq_miles": 844, "latitude": 35.5175, "longitude": -83.4915, "description": "Ancient mountains, diverse wildlife, oldest park by visitors.", "website": "https://www.nps.gov/grsm"},
  {"name": "Acadia", "state": "ME", "region": "Northeast", "established": "1919", "area_sq_miles": 49, "latitude": 44.3386, "longitude": -68.2733, "description": "Coastal beauty on Mount Desert Island.", "website": "https://www.nps.gov/acad"},
  {"name": "Niagara Falls", "state": "NY", "region": "Northeast", "established": "1885", "area_sq_miles": 1, "latitude": 43.0896, "longitude": -79.0849, "description": "Iconic waterfalls and gorge.", "website": "https://www.nps.gov/nifa"},
  {"name": "Mammoth Cave", "state": "KY", "region": "Southeast", "established": "1941", "area_sq_miles": 53, "latitude": 37.1859, "longitude": -86.1003, "description": "World's longest known cave system.", "website": "https://www.nps.gov/maca"},
  {"name": "Arches", "state": "UT", "region": "Southwest", "established": "1929", "area_sq_miles": 77, "latitude": 38.7331, "longitude": -109.5904, "description": "Natural stone arches and spans.", "website": "https://www.nps.gov/arch"},
  {"name": "Canyonlands", "state": "UT", "region": "Southwest", "established": "1964", "area_sq_miles": 337, "latitude": 38.2919, "longitude": -109.9289, "description": "Stunning canyons and Colorado River.", "website": "https://www.nps.gov/cany"},
  {"name": "Capitol Reef", "state": "UT", "region": "Southwest", "established": "1971", "area_sq_miles": 378, "latitude": 38.1337, "longitude": -111.2968, "description": "Colorful rock formations and scenic drive.", "website": "https://www.nps.gov/care"},
  {"name": "Bryce Canyon", "state": "UT", "region": "Southwest", "established": "1928", "area_sq_miles": 56, "latitude": 37.5630, "longitude": -112.1897, "description": "Hoodoos and red rock formations.", "website": "https://www.nps.gov/brca"},
  {"name": "Moab", "state": "UT", "region": "Southwest", "established": "1971", "area_sq_miles": 38, "latitude": 38.4331, "longitude": -109.6088, "description": "Red rock canyons and natural bridges.", "website": "https://www.nps.gov/nabr"},
  {"name": "Petrified Forest", "state": "AZ", "region": "Southwest", "established": "1906", "area_sq_miles": 346, "latitude": 34.8092, "longitude": -109.8044, "description": "Ancient fossilized trees and badlands.", "website": "https://www.nps.gov/pefo"},
  {"name": "Great Basin", "state": "NV", "region": "Pacific", "established": "1986", "area_sq_miles": 77, "latitude": 38.9625, "longitude": -114.3088, "description": "Lehman Caves and ancient bristlecone pines.", "website": "https://www.nps.gov/grba"},
  {"name": "Crater Lake", "state": "OR", "region": "Pacific", "established": "1902", "area_sq_miles": 249, "latitude": 42.9446, "longitude": -122.1093, "description": "Deepest lake in the US created by a volcanic caldera.", "website": "https://www.nps.gov/crla"},
  {"name": "Redwood", "state": "CA", "region": "Pacific", "established": "1968", "area_sq_miles": 139, "latitude": 41.2132, "longitude": -124.0037, "description": "Tallest trees on Earth.", "website": "https://www.nps.gov/redw"},
  {"name": "Olympics", "state": "WA", "region": "Pacific", "established": "1938", "area_sq_miles": 1442, "latitude": 47.8021, "longitude": -123.6044, "description": "Mountains, rainforests, and rugged coastline.", "website": "https://www.nps.gov/olym"},
  {"name": "North Cascades", "state": "WA", "region": "Pacific", "established": "1968", "area_sq_miles": 505, "latitude": 48.3809, "longitude": -121.4905, "description": "Jagged peaks and cascading waterfalls.", "website": "https://www.nps.gov/noca"},
  {"name": "Mount Rainier", "state": "WA", "region": "Pacific", "established": "1899", "area_sq_miles": 377, "latitude": 46.8797, "longitude": -121.7269, "description": "Towering volcano with alpine meadows.", "website": "https://www.nps.gov/mora"},
  {"name": "Yellowstone Lake", "state": "WY", "region": "Rockies", "established": "1872", "area_sq_miles": 3472, "latitude": 44.4280, "longitude": -110.5885, "description": "One of the largest high-elevation lakes.", "website": "https://www.nps.gov/yell"},
  {"name": "Black Hills", "state": "SD", "region": "Rockies", "established": "1939", "area_sq_miles": 4, "latitude": 43.8755, "longitude": -103.2357, "description": "Presidential sculpted mountain.", "website": "https://www.nps.gov/moru"},
  {"name": "Badlands", "state": "SD", "region": "Rockies", "established": "1939", "area_sq_miles": 244, "latitude": 43.7559, "longitude": -102.3419, "description": "Eroded colorful rock formations and prairie.", "website": "https://www.nps.gov/badl"},
  {"name": "Grand Staircase-Escalante", "state": "UT", "region": "Southwest", "established": "1996", "area_sq_miles": 1902, "latitude": 37.6983, "longitude": -111.5021, "description": "Vast wilderness with canyons and plateaus.", "website": "https://www.nps.gov/glca"},
  {"name": "Shenandoah", "state": "VA", "region": "Southeast", "established": "1926", "area_sq_miles": 199, "latitude": 38.4913, "longitude": -78.4930, "description": "Blue Ridge Mountains and Skyline Drive.", "website": "https://www.nps.gov/shen"},
  {"name": "Great Smoky Mountains North Carolina", "state": "NC", "region": "Southeast", "established": "1934", "area_sq_miles": 844, "latitude": 35.5175, "longitude": -83.4915, "description": "Ancient mountains with diverse wildlife.", "website": "https://www.nps.gov/grsm"},
  {"name": "Congaree", "state": "SC", "region": "Southeast", "established": "2003", "area_sq_miles": 27, "latitude": 34.8027, "longitude": -81.0187, "description": "Champion trees in a bottomland forest.", "website": "https://www.nps.gov/cong"},
  {"name": "Everglades", "state": "FL", "region": "Southeast", "established": "1947", "area_sq_miles": 1509, "latitude": 25.3891, "longitude": -80.9498, "description": "Wetland ecosystem with alligators and birds.", "website": "https://www.nps.gov/ever"},
  {"name": "Big Bend", "state": "TX", "region": "Southwest", "established": "1944", "area_sq_miles": 1246, "latitude": 29.2480, "longitude": -103.2505, "description": "Desert wilderness along the Rio Grande.", "website": "https://www.nps.gov/bibe"},
  {"name": "Guadalupe Mountains", "state": "TX", "region": "Southwest", "established": "1972", "area_sq_miles": 86, "latitude": 31.8823, "longitude": -104.8694, "description": "Highest peak in Texas with fossil reef.", "website": "https://www.nps.gov/gumo"},
  {"name": "Hot Springs", "state": "AR", "region": "Southeast", "established": "1921", "area_sq_miles": 5, "latitude": 34.5127, "longitude": -93.0552, "description": "Thermal springs and bathhouses.", "website": "https://www.nps.gov/hosp"},
  {"name": "White Sands", "state": "NM", "region": "Southwest", "established": "1933", "area_sq_miles": 227, "latitude": 32.7870, "longitude": -106.3319, "description": "Largest gypsum dune field in the world.", "website": "https://www.nps.gov/whsa"},
  {"name": "Carlsbad", "state": "NM", "region": "Southwest", "established": "1930", "area_sq_miles": 46, "latitude": 32.1393, "longitude": -104.4272, "description": "Enormous underground caverns.", "website": "https://www.nps.gov/cave"},
  {"name": "Dry Tortugas", "state": "FL", "region": "Southeast", "established": "1992", "area_sq_miles": 229, "latitude": 24.6331, "longitude": -82.8737, "description": "Remote islands with coral reefs and Fort Jefferson.", "website": "https://www.nps.gov/drto"},
  {"name": "Isle Royale", "state": "MI", "region": "Northeast", "established": "1940", "area_sq_miles": 571, "latitude": 47.9614, "longitude": -88.5492, "description": "Isolated island in Lake Superior.", "website": "https://www.nps.gov/isro"},
  {"name": "Virgin Islands", "state": "VI", "region": "Southeast", "established": "1956", "area_sq_miles": 32, "latitude": 18.3368, "longitude": -64.7391, "description": "Tropical beaches and marine life.", "website": "https://www.nps.gov/vi"},
  {"name": "Hawaii Volcanoes", "state": "HI", "region": "Pacific", "established": "1916", "area_sq_miles": 333, "latitude": 19.3651, "longitude": -155.0921, "description": "Active volcanoes and lava landscape.", "website": "https://www.nps.gov/havo"},
  {"name": "HaleakalƒÅ", "state": "HI", "region": "Pacific", "established": "1916", "area_sq_miles": 33, "latitude": 20.7969, "longitude": -156.1548, "description": "Dormant volcano with red cinder desert.", "website": "https://www.nps.gov/hale"},
  {"name": "Great Lakes Shore", "state": "MI", "region": "Northeast", "established": "1925", "area_sq_miles": 54, "latitude": 46.6557, "longitude": -88.0123, "description": "Steep dunes along Lake Michigan.", "website": "https://www.nps.gov/sand"},
  {"name": "Indiana Dunes", "state": "IN", "region": "Northeast", "established": "2019", "area_sq_miles": 14, "latitude": 41.6369, "longitude": -87.0639, "description": "Rare dune ecosystem along Lake Michigan.", "website": "https://www.nps.gov/indu"},
  {"name": "Bureau of Reclamation", "state": "NV", "region": "Pacific", "established": "1964", "area_sq_miles": 146, "latitude": 36.0141, "longitude": -114.7395, "description": "Lake Mead and Hoover Dam.", "website": "https://www.nps.gov/lake"},
  {"name": "Antelope Canyon", "state": "AZ", "region": "Southwest", "established": "1997", "area_sq_miles": 90, "latitude": 36.8597, "longitude": -111.3743, "description": "Narrow slot canyons with sculpted walls.", "website": "https://www.nps.gov/page"},
  {"name": "Monument Valley", "state": "AZ", "region": "Southwest", "established": "1958", "area_sq_miles": 326, "latitude": 36.9974, "longitude": -110.1611, "description": "Iconic desert buttes and mesas.", "website": "https://www.nps.gov/mova"},
  {"name": "Canyon de Chelly", "state": "AZ", "region": "Southwest", "established": "1931", "area_sq_miles": 84, "latitude": 36.3175, "longitude": -109.4829, "description": "Ancient Ancestral Puebloan ruins in sandstone canyons.", "website": "https://www.nps.gov/cach"},
  {"name": "Mesa Verde", "state": "CO", "region": "Southwest", "established": "1906", "area_sq_miles": 53, "latitude": 37.2325, "longitude": -108.4618, "description": "Ancient Puebloan cliff dwellings.", "website": "https://www.nps.gov/meve"},
  {"name": "Chaco Culture", "state": "NM", "region": "Southwest", "established": "1907", "area_sq_miles": 34, "latitude": 36.0308, "longitude": -107.9575, "description": "Center of ancient Puebloan civilization.", "website": "https://www.nps.gov/chcu"},
  {"name": "Hovenweep", "state": "CO", "region": "Southwest", "established": "1923", "area_sq_miles": 785, "latitude": 37.3824, "longitude": -109.0069, "description": "Ancestral Puebloan towers and structures.", "website": "https://www.nps.gov/hove"},
  {"name": "Great Sand Dunes", "state": "CO", "region": "Rockies", "established": "2004", "area_sq_miles": 150, "latitude": 37.7265, "longitude": -105.5281, "description": "Tallest sand dunes in the US with alpine surroundings.", "website": "https://www.nps.gov/grsa"},
  {"name": "Black Canyon of the Gunnison", "state": "CO", "region": "Rockies", "established": "1999", "area_sq_miles": 47, "latitude": 38.5773, "longitude": -107.7247, "description": "Steep walls of dark rock along river.", "website": "https://www.nps.gov/blca"},
  {"name": "Great Basin Great Basin Nevada Bristlecone", "state": "NV", "region": "Pacific", "established": "1986", "area_sq_miles": 77, "latitude": 38.9625, "longitude": -114.3088, "description": "Ancient bristlecone pines and Lehman Caves.", "website": "https://www.nps.gov/grba"},
  {"name": "New River Gorge", "state": "WV", "region": "Southeast", "established": "2020", "area_sq_miles": 7, "latitude": 38.8027, "longitude": -82.1227, "description": "Scenic river gorge with historic bridge.", "website": "https://www.nps.gov/neri"},
  {"name": "Congaree South Carolina", "state": "SC", "region": "Southeast", "established": "2003", "area_sq_miles": 27, "latitude": 34.8027, "longitude": -81.0187, "description": "Bottomland forest with champion trees.", "website": "https://www.nps.gov/cong"},
  {"name": "Great Basin Nevada", "state": "NV", "region": "Pacific", "established": "1986", "area_sq_miles": 77, "latitude": 38.9625, "longitude": -114.3088, "description": "Mountain wilderness with Lehman Caves.", "website": "https://www.nps.gov/grba"},
  {"name": "Black River Breaks", "state": "OH", "region": "Northeast", "established": "2000", "area_sq_miles": 8, "latitude": 41.6490, "longitude": -81.6970, "description": "Urban oasis with waterfalls.", "website": "https://www.nps.gov/cuva"},
  {"name": "Cuyahoga Valley", "state": "OH", "region": "Northeast", "established": "2000", "area_sq_miles": 33, "latitude": 41.3402, "longitude": -81.5486, "description": "Urban national park with cultural history.", "website": "https://www.nps.gov/cuva"},
  {"name": "Voyageurs", "state": "MN", "region": "Northeast", "established": "1975", "area_sq_miles": 219, "latitude": 48.4764, "longitude": -92.8736, "description": "Water-based park with lakes and forests.", "website": "https://www.nps.gov/voya"},
  {"name": "North Cascades Washington", "state": "WA", "region": "Pacific", "established": "1968", "area_sq_miles": 505, "latitude": 48.3809, "longitude": -121.4905, "description": "Jagged peaks and alpine scenery.", "website": "https://www.nps.gov/noca"},
  {"name": "Theodore Roosevelt", "state": "ND", "region": "Rockies", "established": "1947", "area_sq_miles": 70, "latitude": 47.6467, "longitude": -103.0321, "description": "Badlands and bison habitat.", "website": "https://www.nps.gov/thro"},
  {"name": "Wind Cave", "state": "SD", "region": "Rockies", "established": "1903", "area_sq_miles": 44, "latitude": 43.5835, "longitude": -103.4764, "description": "Limestone cave and mixed-grass prairie.", "website": "https://www.nps.gov/wica"},
  {"name": "Jewel Cave", "state": "SD", "region": "Rockies", "established": "1908", "area_sq_miles": 2, "latitude": 43.9990, "longitude": -103.5236, "description": "Third-longest cave in the world.", "website": "https://www.nps.gov/jeca"}
]
